[
    {
        "nombre_feria": "Asociación Gremial de Chacareros de Las Condes",
        "nombre_region": "Metropolitana",
        "nombre_comuna": "Vitacura",
        "postura_feria": "Jueves y viernes",
        "tipo_forma": "marker",
        "coordenadas": [
            {
                "lat": "-33.3855265369543",
                "lng": "-70.59153598692008"
            }
        ]
    },
    {
        "nombre_feria": "Asociación de Chacareros El Aromo",
        "nombre_region": "Metropolitana",
        "nombre_comuna": "Vitacura",
        "postura_feria": "Jueves y sábados",
        "tipo_forma": "marker",
        "coordenadas": [
            {
                "lat": "-33.37864276006814",
                "lng": "-70.55694490947512"
            }
        ]
    },
    {
        "nombre_feria": "Feria La Unión de Til Til 1",
        "nombre_region": "Metropolitana",
        "nombre_comuna": "Til Til",
        "postura_feria": "Martes",
        "tipo_forma": "marker",
        "coordenadas": [
            {
                "lat": "-33.08071096389003",
                "lng": "-70.92900120799382"
            }
        ]
    },
    {
        "nombre_feria": "Feria La Unión de Til Til 2",
        "nombre_region": "Metropolitana",
        "nombre_comuna": "Til Til",
        "postura_feria": "Jueves",
        "tipo_forma": "marker",
        "coordenadas": [
            {
                "lat": "-33.17126123790018",
                "lng": "-70.8879218484433"
            }
        ]
    },
    {
        "nombre_feria": "Feria La Unión de Til Til 3",
        "nombre_region": "Metropolitana",
        "nombre_comuna": "Til Til",
        "postura_feria": "Viernes",
        "tipo_forma": "marker",
        "coordenadas": [
            {
                "lat": "-33.08086005695214",
                "lng": "-70.92808550061221"
            }
        ]
    },
    {
        "nombre_feria": "Feria La Unión de Til Til 4",
        "nombre_region": "Metropolitana",
        "nombre_comuna": "Til Til",
        "postura_feria": "Sábados",
        "tipo_forma": "marker",
        "coordenadas": [
            {
                "lat": "-33.08543326107576",
                "lng": "-70.923896397305"
            }
        ]
    },
    {
        "nombre_feria": "Feria La Unión de Til Til 5",
        "nombre_region": "Metropolitana",
        "nombre_comuna": "Til Til",
        "postura_feria": "Domingos",
        "tipo_forma": "marker",
        "coordenadas": [
            {
                "lat": "-33.13121686913888",
                "lng": "-70.80729633416664"
            }
        ]
    },
    {
        "nombre_feria": "Feria Modelo ",
        "nombre_region": "Metropolitana",
        "nombre_comuna": "Til Til",
        "postura_feria": "Viernes",
        "tipo_forma": "marker",
        "coordenadas": [
            {
                "lat": "-33.08475271188569",
                "lng": "-70.92491185103054"
            }
        ]
    },
    {
        "nombre_feria": "Feria Modelo ",
        "nombre_region": "Metropolitana",
        "nombre_comuna": "Til Til",
        "postura_feria": "Sábados",
        "tipo_forma": "marker",
        "coordenadas": [
            {
                "lat": "-33.16124026004945",
                "lng": "-70.79000972362167"
            }
        ]
    },
    {
        "nombre_feria": "Feria Modelo ",
        "nombre_region": "Metropolitana",
        "nombre_comuna": "Til Til",
        "postura_feria": "Domingos",
        "tipo_forma": "marker",
        "coordenadas": [
            {
                "lat": "-33.13498512305212",
                "lng": "-70.80419573106825"
            }
        ]
    },
    {
        "nombre_feria": "Feria de Talagante 2",
        "nombre_region": "Metropolitana",
        "nombre_comuna": "Talagante",
        "postura_feria": "Miércoles",
        "tipo_forma": "marker",
        "coordenadas": [
            {
                "lat": "-33.66200467698961",
                "lng": "-70.91977052382448"
            }
        ]
    },
    {
        "nombre_feria": "Feria de Talagante 3",
        "nombre_region": "Metropolitana",
        "nombre_comuna": "Talagante",
        "postura_feria": "Jueves",
        "tipo_forma": "marker",
        "coordenadas": [
            {
                "lat": "-33.66297800197887",
                "lng": "-70.92965720181556"
            }
        ]
    },
    {
        "nombre_feria": "Feria de Talagante 4",
        "nombre_region": "Metropolitana",
        "nombre_comuna": "Talagante",
        "postura_feria": "Sábados",
        "tipo_forma": "marker",
        "coordenadas": [
            {
                "lat": "-33.67152099459955",
                "lng": "-70.93768053704906"
            }
        ]
    },
    {
        "nombre_feria": "Feria de Talagante 5",
        "nombre_region": "Metropolitana",
        "nombre_comuna": "Talagante",
        "postura_feria": "Domingos",
        "tipo_forma": "marker",
        "coordenadas": [
            {
                "lat": "-33.67249294566668",
                "lng": "-70.94331914991629"
            }
        ]
    },
    {
        "nombre_feria": "Feria de Talagante 1",
        "nombre_region": "Metropolitana",
        "nombre_comuna": "Talagante",
        "postura_feria": "Martes",
        "tipo_forma": "marker",
        "coordenadas": [
            {
                "lat": "-33.65451284374463",
                "lng": "-70.90388476713549"
            }
        ]
    },
    {
        "nombre_feria": "Feria Libre de San Pedro",
        "nombre_region": "Metropolitana",
        "nombre_comuna": "San Pedro",
        "postura_feria": "Martes",
        "tipo_forma": "marker",
        "coordenadas": [
            {
                "lat": "-33.89383071622294",
                "lng": "-71.46066962871885"
            }
        ]
    },
    {
        "nombre_feria": "Feria de Pago de Pensionados",
        "nombre_region": "Metropolitana",
        "nombre_comuna": "San Pedro",
        "postura_feria": "Día de pago de pensionados",
        "tipo_forma": "marker",
        "coordenadas": [
            {
                "lat": "-33.8939364057097",
                "lng": "-71.4577188890004"
            }
        ]
    },
    {
        "nombre_feria": "Las Palmeras",
        "nombre_region": "Metropolitana",
        "nombre_comuna": "Peñaflor",
        "postura_feria": "Martes y  viernes",
        "tipo_forma": "marker",
        "coordenadas": [
            {
                "lat": "-33.61144733802889",
                "lng": "-70.89251539329332"
            }
        ]
    },
    {
        "nombre_feria": "Las Praderas",
        "nombre_region": "Metropolitana",
        "nombre_comuna": "Peñaflor",
        "postura_feria": "Miércoles y domingos",
        "tipo_forma": "marker",
        "coordenadas": [
            {
                "lat": "-33.60755151060859",
                "lng": "-70.86409840183124"
            }
        ]
    },
    {
        "nombre_feria": "Manuel González",
        "nombre_region": "Metropolitana",
        "nombre_comuna": "Peñaflor",
        "postura_feria": "Miércoles y domingos",
        "tipo_forma": "marker",
        "coordenadas": [
            {
                "lat": "-33.60294739721834",
                "lng": "-70.85540882101233"
            }
        ]
    },
    {
        "nombre_feria": "El Castillo",
        "nombre_region": "Metropolitana",
        "nombre_comuna": "Peñaflor",
        "postura_feria": "Jueves y domingos",
        "tipo_forma": "marker",
        "coordenadas": [
            {
                "lat": "-33.61002399445602",
                "lng": "-70.87124717034882"
            }
        ]
    },
    {
        "nombre_feria": "Las Cooperativas",
        "nombre_region": "Metropolitana",
        "nombre_comuna": "Peñaflor",
        "postura_feria": "Sábados",
        "tipo_forma": "marker",
        "coordenadas": [
            {
                "lat": "-33.6042043789361",
                "lng": "-70.87544543858188"
            }
        ]
    },
    {
        "nombre_feria": "Feria Calle Buin",
        "nombre_region": "Metropolitana",
        "nombre_comuna": "Paine",
        "postura_feria": "Miércoles y jueves",
        "tipo_forma": "marker",
        "coordenadas": [
            {
                "lat": "-33.81389530210265",
                "lng": "-70.73599323910329"
            }
        ]
    },
    {
        "nombre_feria": "Feria Altos de Cantillana",
        "nombre_region": "Metropolitana",
        "nombre_comuna": "Paine",
        "postura_feria": "Miércoles y sábados",
        "tipo_forma": "marker",
        "coordenadas": [
            {
                "lat": "-33.80324072454919",
                "lng": "-70.72738952683677"
            }
        ]
    },
    {
        "nombre_feria": "Feria 18 de Septiembre",
        "nombre_region": "Metropolitana",
        "nombre_comuna": "Paine",
        "postura_feria": "Domingos",
        "tipo_forma": "marker",
        "coordenadas": [
            {
                "lat": "-33.81005184924707",
                "lng": "-70.73891743844879"
            }
        ]
    },
    {
        "nombre_feria": "Feria San Rafael",
        "nombre_region": "Metropolitana",
        "nombre_comuna": "Paine",
        "postura_feria": "Domingos",
        "tipo_forma": "marker",
        "coordenadas": [
            {
                "lat": "-33.8177124487495",
                "lng": "-70.74335021425985"
            }
        ]
    },
    {
        "nombre_feria": "Feria Nueva Esperanza",
        "nombre_region": "Metropolitana",
        "nombre_comuna": "Paine",
        "postura_feria": "Domingos",
        "tipo_forma": "marker",
        "coordenadas": [
            {
                "lat": "-33.80913223259508",
                "lng": "-70.73831432718002"
            }
        ]
    },
    {
        "nombre_feria": "Feria El Esfuerzo",
        "nombre_region": "Metropolitana",
        "nombre_comuna": "Paine",
        "postura_feria": "Domingos",
        "tipo_forma": "marker",
        "coordenadas": [
            {
                "lat": "-33.80886108963203",
                "lng": "-70.73926919322338"
            }
        ]
    },
    {
        "nombre_feria": "Feria Calle Maipo",
        "nombre_region": "Metropolitana",
        "nombre_comuna": "Paine",
        "postura_feria": "Domingos",
        "tipo_forma": "marker",
        "coordenadas": [
            {
                "lat": "-33.80850752536207",
                "lng": "-70.73794727601337"
            }
        ]
    },
    {
        "nombre_feria": "Feria Prodesal",
        "nombre_region": "Metropolitana",
        "nombre_comuna": "Paine",
        "postura_feria": "Domingos",
        "tipo_forma": "marker",
        "coordenadas": [
            {
                "lat": "-33.81023008441142",
                "lng": "-70.73829080557906"
            }
        ]
    },
    {
        "nombre_feria": "Feria Cuatro Norte",
        "nombre_region": "Metropolitana",
        "nombre_comuna": "Paine",
        "postura_feria": "Domingos",
        "tipo_forma": "marker",
        "coordenadas": [
            {
                "lat": "-33.81051215418825",
                "lng": "-70.73926831409953"
            }
        ]
    },
    {
        "nombre_feria": "Feria Alfonso Suárez",
        "nombre_region": "Metropolitana",
        "nombre_comuna": "Melipilla",
        "postura_feria": "Martes",
        "tipo_forma": "marker",
        "coordenadas": [
            {
                "lat": "-33.68268145822608",
                "lng": "-71.2065287463393"
            }
        ]
    },
    {
        "nombre_feria": "Feria Alfonso Suárez",
        "nombre_region": "Metropolitana",
        "nombre_comuna": "Melipilla",
        "postura_feria": "Miércoles",
        "tipo_forma": "marker",
        "coordenadas": [
            {
                "lat": "-33.68343663546732",
                "lng": "-71.22321940513353"
            }
        ]
    },
    {
        "nombre_feria": "Feria Alfonso Suárez",
        "nombre_region": "Metropolitana",
        "nombre_comuna": "Melipilla",
        "postura_feria": "Viernes",
        "tipo_forma": "marker",
        "coordenadas": [
            {
                "lat": "-33.67810568935154",
                "lng": "-71.1874816763228"
            }
        ]
    },
    {
        "nombre_feria": "Feria Alfonso Suárez",
        "nombre_region": "Metropolitana",
        "nombre_comuna": "Melipilla",
        "postura_feria": "Sábados",
        "tipo_forma": "marker",
        "coordenadas": [
            {
                "lat": "-33.68290150330741",
                "lng": "-71.21918114324605"
            }
        ]
    },
    {
        "nombre_feria": "Feria Alfonso Suárez",
        "nombre_region": "Metropolitana",
        "nombre_comuna": "Melipilla",
        "postura_feria": "Domingos",
        "tipo_forma": "marker",
        "coordenadas": [
            {
                "lat": "-33.68427484689133",
                "lng": "-71.22572295170522"
            }
        ]
    },
    {
        "nombre_feria": "Los Bollenes",
        "nombre_region": "Metropolitana",
        "nombre_comuna": "Melipilla",
        "postura_feria": "Martes",
        "tipo_forma": "marker",
        "coordenadas": [
            {
                "lat": "-33.68392624256249",
                "lng": "-71.20665966065043"
            }
        ]
    },
    {
        "nombre_feria": "Los Bollenes",
        "nombre_region": "Metropolitana",
        "nombre_comuna": "Melipilla",
        "postura_feria": "Miércoles",
        "tipo_forma": "marker",
        "coordenadas": [
            {
                "lat": "-33.68396944947968",
                "lng": "-71.22261130279472"
            }
        ]
    },
    {
        "nombre_feria": "Los Bollenes",
        "nombre_region": "Metropolitana",
        "nombre_comuna": "Melipilla",
        "postura_feria": "Viernes",
        "tipo_forma": "marker",
        "coordenadas": [
            {
                "lat": "-33.67847208796107",
                "lng": "-71.18740630912468"
            }
        ]
    },
    {
        "nombre_feria": "Los Bollenes",
        "nombre_region": "Metropolitana",
        "nombre_comuna": "Melipilla",
        "postura_feria": "Sábados",
        "tipo_forma": "marker",
        "coordenadas": [
            {
                "lat": "-33.68332852504135",
                "lng": "-71.21921804853534"
            }
        ]
    },
    {
        "nombre_feria": "Los Bollenes",
        "nombre_region": "Metropolitana",
        "nombre_comuna": "Melipilla",
        "postura_feria": "Domingos",
        "tipo_forma": "marker",
        "coordenadas": [
            {
                "lat": "-33.68433146479766",
                "lng": "-71.22499980824678"
            }
        ]
    },
    {
        "nombre_feria": "Los Lagos",
        "nombre_region": "Metropolitana",
        "nombre_comuna": "Melipilla",
        "postura_feria": "Martes",
        "tipo_forma": "marker",
        "coordenadas": [
            {
                "lat": "-33.68335072649149",
                "lng": "-71.2065938248105"
            }
        ]
    },
    {
        "nombre_feria": "Los Lagos",
        "nombre_region": "Metropolitana",
        "nombre_comuna": "Melipilla",
        "postura_feria": "Miércoles",
        "tipo_forma": "marker",
        "coordenadas": [
            {
                "lat": "-33.68291301186645",
                "lng": "-71.22377242957509"
            }
        ]
    },
    {
        "nombre_feria": "Los Lagos",
        "nombre_region": "Metropolitana",
        "nombre_comuna": "Melipilla",
        "postura_feria": "Viernes",
        "tipo_forma": "marker",
        "coordenadas": [
            {
                "lat": "-33.67775249989677",
                "lng": "-71.18755325128843"
            }
        ]
    },
    {
        "nombre_feria": "Los Lagos",
        "nombre_region": "Metropolitana",
        "nombre_comuna": "Melipilla",
        "postura_feria": "Sábados",
        "tipo_forma": "marker",
        "coordenadas": [
            {
                "lat": "-33.68246477475761",
                "lng": "-71.21915448860941"
            }
        ]
    },
    {
        "nombre_feria": "Los Lagos",
        "nombre_region": "Metropolitana",
        "nombre_comuna": "Melipilla",
        "postura_feria": "Domingos",
        "tipo_forma": "marker",
        "coordenadas": [
            {
                "lat": "-33.68432866614733",
                "lng": "-71.22534934136382"
            }
        ]
    },
    {
        "nombre_feria": "Manuel Rodríguez",
        "nombre_region": "Metropolitana",
        "nombre_comuna": "Melipilla",
        "postura_feria": "Martes",
        "tipo_forma": "marker",
        "coordenadas": [
            {
                "lat": "-33.68294797889872",
                "lng": "-71.20656500564327"
            }
        ]
    },
    {
        "nombre_feria": "Manuel Rodríguez",
        "nombre_region": "Metropolitana",
        "nombre_comuna": "Melipilla",
        "postura_feria": "Miércoles",
        "tipo_forma": "marker",
        "coordenadas": [
            {
                "lat": "-33.68266242557453",
                "lng": "-71.22408216157046"
            }
        ]
    },
    {
        "nombre_feria": "Manuel Rodríguez",
        "nombre_region": "Metropolitana",
        "nombre_comuna": "Melipilla",
        "postura_feria": "Viernes",
        "tipo_forma": "marker",
        "coordenadas": [
            {
                "lat": "-33.67828956812853",
                "lng": "-71.18741262435915"
            }
        ]
    },
    {
        "nombre_feria": "Manuel Rodríguez",
        "nombre_region": "Metropolitana",
        "nombre_comuna": "Melipilla",
        "postura_feria": "Sábados",
        "tipo_forma": "marker",
        "coordenadas": [
            {
                "lat": "-33.68370808519466",
                "lng": "-71.2192519436994"
            }
        ]
    },
    {
        "nombre_feria": "Manuel Rodríguez",
        "nombre_region": "Metropolitana",
        "nombre_comuna": "Melipilla",
        "postura_feria": "Domingos",
        "tipo_forma": "marker",
        "coordenadas": [
            {
                "lat": "-33.68429601806395",
                "lng": "-71.22599444132946"
            }
        ]
    },
    {
        "nombre_feria": "Villa Los Toros",
        "nombre_region": "Metropolitana",
        "nombre_comuna": "Melipilla",
        "postura_feria": "Martes",
        "tipo_forma": "marker",
        "coordenadas": [
            {
                "lat": "-33.68244338044919",
                "lng": "-71.20652456895128"
            }
        ]
    },
    {
        "nombre_feria": "Villa Los Toros",
        "nombre_region": "Metropolitana",
        "nombre_comuna": "Melipilla",
        "postura_feria": "Miércoles",
        "tipo_forma": "marker",
        "coordenadas": [
            {
                "lat": "-33.68319338852324",
                "lng": "-71.22348044178911"
            }
        ]
    },
    {
        "nombre_feria": "Villa Los Toros",
        "nombre_region": "Metropolitana",
        "nombre_comuna": "Melipilla",
        "postura_feria": "Viernes",
        "tipo_forma": "marker",
        "coordenadas": [
            {
                "lat": "-33.67792622615867",
                "lng": "-71.18751299521661"
            }
        ]
    },
    {
        "nombre_feria": "Villa Los Toros",
        "nombre_region": "Metropolitana",
        "nombre_comuna": "Melipilla",
        "postura_feria": "Sábados",
        "tipo_forma": "marker",
        "coordenadas": [
            {
                "lat": "-33.68407736793434",
                "lng": "-71.21925493066897"
            }
        ]
    },
    {
        "nombre_feria": "Villa Los Toros",
        "nombre_region": "Metropolitana",
        "nombre_comuna": "Melipilla",
        "postura_feria": "Domingos",
        "tipo_forma": "marker",
        "coordenadas": [
            {
                "lat": "-33.68427909695451",
                "lng": "-71.226233489935"
            }
        ]
    },
    {
        "nombre_feria": "Feria Libre María Pinto",
        "nombre_region": "Metropolitana",
        "nombre_comuna": "María Pinto",
        "postura_feria": "Domingos",
        "tipo_forma": "marker",
        "coordenadas": [
            {
                "lat": "-33.51899531056761",
                "lng": "-71.1197235682249"
            }
        ]
    },
    {
        "nombre_feria": "Feria El Esfuerzo ",
        "nombre_region": "Metropolitana",
        "nombre_comuna": "Lampa",
        "postura_feria": "Viernes",
        "tipo_forma": "marker",
        "coordenadas": [
            {
                "lat": "-33.28590001154483",
                "lng": "-70.88470552395648"
            }
        ]
    },
    {
        "nombre_feria": "La Papa de Larapinta 1",
        "nombre_region": "Metropolitana",
        "nombre_comuna": "Lampa",
        "postura_feria": "Jueves",
        "tipo_forma": "marker",
        "coordenadas": [
            {
                "lat": "-33.29447517366526",
                "lng": "-70.88577924248662"
            }
        ]
    },
    {
        "nombre_feria": "Feria 1 de Mayo 2 ",
        "nombre_region": "Metropolitana",
        "nombre_comuna": "Lampa",
        "postura_feria": "Domingos",
        "tipo_forma": "marker",
        "coordenadas": [
            {
                "lat": "-33.28287859325001",
                "lng": "-70.87913036395142"
            }
        ]
    },
    {
        "nombre_feria": "Feria 1 de Mayo 1",
        "nombre_region": "Metropolitana",
        "nombre_comuna": "Lampa",
        "postura_feria": "Domingos",
        "tipo_forma": "marker",
        "coordenadas": [
            {
                "lat": "-33.28307225442646",
                "lng": "-70.87957768334155"
            }
        ]
    },
    {
        "nombre_feria": "Multigremial",
        "nombre_region": "Metropolitana",
        "nombre_comuna": "Lampa",
        "postura_feria": "Sábados y domingos",
        "tipo_forma": "marker",
        "coordenadas": [
            {
                "lat": "-33.22974139085645",
                "lng": "-70.8102998007077"
            }
        ]
    },
    {
        "nombre_feria": "Feria El Esfuerzo  ",
        "nombre_region": "Metropolitana",
        "nombre_comuna": "Lampa",
        "postura_feria": "Sábados",
        "tipo_forma": "marker",
        "coordenadas": [
            {
                "lat": "-33.28669613675214",
                "lng": "-70.874556155786"
            }
        ]
    },
    {
        "nombre_feria": "La Papa de Larapinta 1",
        "nombre_region": "Metropolitana",
        "nombre_comuna": "Lampa",
        "postura_feria": "Miércoles, sábados y domingos",
        "tipo_forma": "marker",
        "coordenadas": [
            {
                "lat": "-33.27805380565791",
                "lng": "-70.88217445527128"
            }
        ]
    },
    {
        "nombre_feria": "Feria 1 de Mayo 2",
        "nombre_region": "Metropolitana",
        "nombre_comuna": "Lampa",
        "postura_feria": "Viernes",
        "tipo_forma": "marker",
        "coordenadas": [
            {
                "lat": "-33.28594646726187",
                "lng": "-70.88494354277609"
            }
        ]
    },
    {
        "nombre_feria": "La Papa de Larapinta 2 ",
        "nombre_region": "Metropolitana",
        "nombre_comuna": "Lampa",
        "postura_feria": "Miércoles, sábados y domingos",
        "tipo_forma": "marker",
        "coordenadas": [
            {
                "lat": "-33.29651466480556",
                "lng": "-70.87827628799538"
            }
        ]
    },
    {
        "nombre_feria": "La Papa de Larapinta 2",
        "nombre_region": "Metropolitana",
        "nombre_comuna": "Lampa",
        "postura_feria": "Jueves",
        "tipo_forma": "marker",
        "coordenadas": [
            {
                "lat": "-33.29400722323111",
                "lng": "-70.88574070539975"
            }
        ]
    },
    {
        "nombre_feria": "Feria 1 de Mayo 1 ",
        "nombre_region": "Metropolitana",
        "nombre_comuna": "Lampa",
        "postura_feria": "Sábados",
        "tipo_forma": "marker",
        "coordenadas": [
            {
                "lat": "-33.29574851061953",
                "lng": "-70.86828140120487"
            }
        ]
    },
    {
        "nombre_feria": "Feria 1 de Mayo 2 ",
        "nombre_region": "Metropolitana",
        "nombre_comuna": "Lampa",
        "postura_feria": "Sábados",
        "tipo_forma": "marker",
        "coordenadas": [
            {
                "lat": "-33.27994672775986",
                "lng": "-70.88904300564747"
            }
        ]
    },
    {
        "nombre_feria": "Villa Los Álamos 1",
        "nombre_region": "Metropolitana",
        "nombre_comuna": "El Monte",
        "postura_feria": "Martes y  viernes",
        "tipo_forma": "marker",
        "coordenadas": [
            {
                "lat": "-33.6831878037984",
                "lng": "-70.99382182345913"
            }
        ]
    },
    {
        "nombre_feria": "Villa Los Álamos 2",
        "nombre_region": "Metropolitana",
        "nombre_comuna": "El Monte",
        "postura_feria": "Miércoles",
        "tipo_forma": "marker",
        "coordenadas": [
            {
                "lat": "-33.68721155851459",
                "lng": "-71.02949684745313"
            }
        ]
    },
    {
        "nombre_feria": "Villa Los Álamos 3",
        "nombre_region": "Metropolitana",
        "nombre_comuna": "El Monte",
        "postura_feria": "Jueves",
        "tipo_forma": "marker",
        "coordenadas": [
            {
                "lat": "-33.67611097255217",
                "lng": "-70.98556424210017"
            }
        ]
    },
    {
        "nombre_feria": "Villa Los Álamos 4",
        "nombre_region": "Metropolitana",
        "nombre_comuna": "El Monte",
        "postura_feria": "Sábados",
        "tipo_forma": "marker",
        "coordenadas": [
            {
                "lat": "-33.68715812199036",
                "lng": "-71.02649341128263"
            }
        ]
    },
    {
        "nombre_feria": "Villa Los Álamos 5",
        "nombre_region": "Metropolitana",
        "nombre_comuna": "El Monte",
        "postura_feria": "Domingos",
        "tipo_forma": "marker",
        "coordenadas": [
            {
                "lat": "-33.6797647467693",
                "lng": "-70.98778733484022"
            }
        ]
    },
    {
        "nombre_feria": "Villa Antigua",
        "nombre_region": "Metropolitana",
        "nombre_comuna": "El Monte",
        "postura_feria": "Domingos",
        "tipo_forma": "marker",
        "coordenadas": [
            {
                "lat": "-33.67264631473682",
                "lng": "-70.99002637986942"
            }
        ]
    },
    {
        "nombre_feria": "Plaza Los Porotos",
        "nombre_region": "Metropolitana",
        "nombre_comuna": "El Monte",
        "postura_feria": "Sábados",
        "tipo_forma": "marker",
        "coordenadas": [
            {
                "lat": "-33.6782118884348",
                "lng": "-70.99245740991803"
            }
        ]
    },
    {
        "nombre_feria": "Villa O'Higgins",
        "nombre_region": "Metropolitana",
        "nombre_comuna": "El Monte",
        "postura_feria": "Miércoles y sábados",
        "tipo_forma": "marker",
        "coordenadas": [
            {
                "lat": "-33.68896845904219",
                "lng": "-71.04831446866244"
            }
        ]
    },
    {
        "nombre_feria": "Feria Libre de Colina ",
        "nombre_region": "Metropolitana",
        "nombre_comuna": "Colina",
        "postura_feria": "Jueves y domingos",
        "tipo_forma": "marker",
        "coordenadas": [
            {
                "lat": "-33.20865724773242",
                "lng": "-70.67540912093021"
            }
        ]
    },
    {
        "nombre_feria": "Feria Libre de Colina ",
        "nombre_region": "Metropolitana",
        "nombre_comuna": "Colina",
        "postura_feria": "Miércoles y sábados",
        "tipo_forma": "marker",
        "coordenadas": [
            {
                "lat": "-33.19426578434972",
                "lng": "-70.66680822459857"
            }
        ]
    },
    {
        "nombre_feria": "Feria Libre Bicentenario 1",
        "nombre_region": "Metropolitana",
        "nombre_comuna": "Calera de Tango",
        "postura_feria": "Miércoles",
        "tipo_forma": "marker",
        "coordenadas": [
            {
                "lat": "-33.62675888847785",
                "lng": "-70.8022498364183"
            }
        ]
    },
    {
        "nombre_feria": "Feria Libre Bicentenario 2",
        "nombre_region": "Metropolitana",
        "nombre_comuna": "Calera de Tango",
        "postura_feria": "Jueves",
        "tipo_forma": "marker",
        "coordenadas": [
            {
                "lat": "-33.63466166751645",
                "lng": "-70.76555739774466"
            }
        ]
    },
    {
        "nombre_feria": "Feria Libre Bicentenario 3",
        "nombre_region": "Metropolitana",
        "nombre_comuna": "Calera de Tango",
        "postura_feria": "Sábados",
        "tipo_forma": "marker",
        "coordenadas": [
            {
                "lat": "-33.60186534632066",
                "lng": "-70.78655219546621"
            }
        ]
    },
    {
        "nombre_feria": "Feria Libre Bicentenario 4",
        "nombre_region": "Metropolitana",
        "nombre_comuna": "Calera de Tango",
        "postura_feria": "Domingos",
        "tipo_forma": "marker",
        "coordenadas": [
            {
                "lat": "-33.62700722721862",
                "lng": "-70.77982945032157"
            }
        ]
    },
    {
        "nombre_feria": "Feria Libre de Ropa Usada Las Carmelitas",
        "nombre_region": "Metropolitana",
        "nombre_comuna": "Calera de Tango",
        "postura_feria": "Sábados",
        "tipo_forma": "marker",
        "coordenadas": [
            {
                "lat": "-33.62703236983909",
                "lng": "-70.77965741354168"
            }
        ]
    },
    {
        "nombre_feria": "Martínez de Rosas",
        "nombre_region": "Metropolitana",
        "nombre_comuna": "Santiago",
        "postura_feria": "Miércoles y sábados",
        "tipo_forma": "linea",
        "coordenadas": [
            {
                "lat": "-33.4337849461479",
                "lng": "\n\t\t\t\t\t\t-70.66892293863509"
            },
            {
                "lat": "-33.43354076546882",
                "lng": " -70.66503751764154"
            }
        ]
    },
    {
        "nombre_feria": "San Agustín",
        "nombre_region": "Metropolitana",
        "nombre_comuna": "Santiago",
        "postura_feria": "Miércoles y sábados",
        "tipo_forma": "linea",
        "coordenadas": [
            {
                "lat": "-33.47439083021582",
                "lng": "\n\t\t\t\t\t\t-70.67034412363546"
            },
            {
                "lat": "-33.47438467998776",
                "lng": " -70.67155121456165"
            }
        ]
    },
    {
        "nombre_feria": "Pedro Lagos",
        "nombre_region": "Metropolitana",
        "nombre_comuna": "Santiago",
        "postura_feria": "Miércoles y sábados",
        "tipo_forma": "linea",
        "coordenadas": [
            {
                "lat": "-33.46457542577578",
                "lng": "\n\t\t\t\t\t\t-70.63767028560507"
            },
            {
                "lat": "-33.46400967425299",
                "lng": " -70.6344355725284"
            }
        ]
    },
    {
        "nombre_feria": "Coquimbo",
        "nombre_region": "Metropolitana",
        "nombre_comuna": "Santiago",
        "postura_feria": "Miércoles y sábados",
        "tipo_forma": "linea",
        "coordenadas": [
            {
                "lat": "-33.45675006978669",
                "lng": "\n\t\t\t\t\t\t-70.64866035760321"
            },
            {
                "lat": "-33.4560184974174",
                "lng": " -70.64486766013667"
            }
        ]
    },
    {
        "nombre_feria": "Roberto Espinoza",
        "nombre_region": "Metropolitana",
        "nombre_comuna": "Santiago",
        "postura_feria": "Miércoles y sábados",
        "tipo_forma": "linea",
        "coordenadas": [
            {
                "lat": "-33.46638074971327",
                "lng": "\n\t\t\t\t\t\t-70.65170480593217"
            },
            {
                "lat": "-33.46410076003382",
                "lng": " -70.65198039890518"
            }
        ]
    },
    {
        "nombre_feria": "Esperanza",
        "nombre_region": "Metropolitana",
        "nombre_comuna": "Santiago",
        "postura_feria": "Domingos",
        "tipo_forma": "linea",
        "coordenadas": [
            {
                "lat": "-33.44360126569961",
                "lng": "\n\t\t\t\t\t\t-70.67538335238579"
            },
            {
                "lat": "-33.44591171698214",
                "lng": " -70.67513361592572"
            }
        ]
    },
    {
        "nombre_feria": "San Camilo",
        "nombre_region": "Metropolitana",
        "nombre_comuna": "Santiago",
        "postura_feria": "Viernes",
        "tipo_forma": "linea",
        "coordenadas": [
            {
                "lat": "-33.44925878916187",
                "lng": "\n\t\t\t\t\t\t-70.63409708098364"
            },
            {
                "lat": "-33.4459632966632",
                "lng": " -70.63505692055941"
            }
        ]
    },
    {
        "nombre_feria": "Aldunate",
        "nombre_region": "Metropolitana",
        "nombre_comuna": "Santiago",
        "postura_feria": "Jueves y domingos",
        "tipo_forma": "linea",
        "coordenadas": [
            {
                "lat": "-33.45773995522146",
                "lng": "\n\t\t\t\t\t\t-70.65462585149268"
            },
            {
                "lat": "-33.456090956373",
                "lng": " -70.65481361954299"
            }
        ]
    },
    {
        "nombre_feria": "Gaspar de la Barrera",
        "nombre_region": "Metropolitana",
        "nombre_comuna": "Santiago",
        "postura_feria": "Jueves y domingos",
        "tipo_forma": "linea",
        "coordenadas": [
            {
                "lat": "-33.46719005884823",
                "lng": "\n\t\t\t\t\t\t-70.67724317548613"
            },
            {
                "lat": "-33.46717094855617",
                "lng": " -70.67383384293095"
            }
        ]
    },
    {
        "nombre_feria": "10 de Julio",
        "nombre_region": "Metropolitana",
        "nombre_comuna": "Santiago",
        "postura_feria": "Domingos",
        "tipo_forma": "linea",
        "coordenadas": [
            {
                "lat": "-33.4515648070244",
                "lng": "\n\t\t\t\t\t\t-70.63430434171639"
            },
            {
                "lat": "-33.45157785608549",
                "lng": " -70.63249087931283"
            },
            {
                "lat": "-33.45183017627463",
                "lng": " -70.63120655041449"
            }
        ]
    },
    {
        "nombre_feria": "Romero",
        "nombre_region": "Metropolitana",
        "nombre_comuna": "Santiago",
        "postura_feria": "Martes y  viernes",
        "tipo_forma": "linea",
        "coordenadas": [
            {
                "lat": "-33.44727504391403",
                "lng": "\n\t\t\t\t\t\t-70.67151400169912"
            },
            {
                "lat": "-33.44768277699873",
                "lng": " -70.67324210846549"
            }
        ]
    },
    {
        "nombre_feria": "Portales",
        "nombre_region": "Metropolitana",
        "nombre_comuna": "Santiago",
        "postura_feria": "Jueves",
        "tipo_forma": "linea",
        "coordenadas": [
            {
                "lat": "-33.44327876492899",
                "lng": "\n\t\t\t\t\t\t-70.67631946581857"
            },
            {
                "lat": "-33.44301621207097",
                "lng": " -70.6739951948859"
            }
        ]
    },
    {
        "nombre_feria": "Herrera",
        "nombre_region": "Metropolitana",
        "nombre_comuna": "Santiago",
        "postura_feria": "Martes y  viernes",
        "tipo_forma": "linea",
        "coordenadas": [
            {
                "lat": "-33.43546651828174",
                "lng": "\n\t\t\t\t\t\t-70.67814414874822"
            },
            {
                "lat": "-33.43280621349729",
                "lng": " -70.67837571882873"
            }
        ]
    },
    {
        "nombre_feria": "Ventura Lavalle",
        "nombre_region": "Metropolitana",
        "nombre_comuna": "Santiago",
        "postura_feria": "Martes",
        "tipo_forma": "linea",
        "coordenadas": [
            {
                "lat": "-33.4581857680758",
                "lng": "\n\t\t\t\t\t\t-70.63421529552362"
            },
            {
                "lat": "-33.45841381031107",
                "lng": " -70.63598916871256"
            }
        ]
    },
    {
        "nombre_feria": "La Bandera",
        "nombre_region": "Metropolitana",
        "nombre_comuna": "San Ramón",
        "postura_feria": "Jueves y domingos",
        "tipo_forma": "linea",
        "coordenadas": [
            {
                "lat": "-33.55098610513752",
                "lng": "\n\t\t\t\t\t\t-70.64639173358935"
            },
            {
                "lat": "-33.54591620424873",
                "lng": " -70.64534319568384"
            }
        ]
    },
    {
        "nombre_feria": "Libertad",
        "nombre_region": "Metropolitana",
        "nombre_comuna": "San Ramón",
        "postura_feria": "Miércoles y sábados",
        "tipo_forma": "linea",
        "coordenadas": [
            {
                "lat": "-33.53912537478061",
                "lng": "\n\t\t\t\t\t\t-70.64251216358861"
            },
            {
                "lat": "-33.5391090708236",
                "lng": " -70.64220891375379"
            },
            {
                "lat": "-33.53911994377791",
                "lng": " -70.64195457741749"
            },
            {
                "lat": "-33.53977934041515",
                "lng": " -70.63742609438449"
            },
            {
                "lat": "-33.53982453654967",
                "lng": " -70.63697207556649"
            },
            {
                "lat": "-33.53981961275338",
                "lng": " -70.63671465134232"
            },
            {
                "lat": "-33.53978188939488",
                "lng": " -70.63649536492503"
            },
            {
                "lat": "-33.5397220868466",
                "lng": " -70.63622146677025"
            },
            {
                "lat": "-33.53971598883605",
                "lng": " -70.63608696786426"
            }
        ]
    },
    {
        "nombre_feria": "Mayo",
        "nombre_region": "Metropolitana",
        "nombre_comuna": "San Ramón",
        "postura_feria": "Miércoles y sábados",
        "tipo_forma": "linea",
        "coordenadas": [
            {
                "lat": "-33.5204339113491",
                "lng": "\n\t\t\t\t\t\t-70.64258426804408"
            },
            {
                "lat": "-33.52083858276458",
                "lng": " -70.64004217690453"
            }
        ]
    },
    {
        "nombre_feria": "La Blanca",
        "nombre_region": "Metropolitana",
        "nombre_comuna": "San Ramón",
        "postura_feria": "Jueves y domingos",
        "tipo_forma": "linea",
        "coordenadas": [
            {
                "lat": "-33.5268288112377",
                "lng": "\n\t\t\t\t\t\t-70.64422850961707"
            },
            {
                "lat": "-33.52437435082752",
                "lng": " -70.64367475828908"
            }
        ]
    },
    {
        "nombre_feria": "Sargento Candelaria",
        "nombre_region": "Metropolitana",
        "nombre_comuna": "San Ramón",
        "postura_feria": "Miércoles y sábados",
        "tipo_forma": "linea",
        "coordenadas": [
            {
                "lat": "-33.55480254859835",
                "lng": "\n\t\t\t\t\t\t-70.64344727322697"
            },
            {
                "lat": "-33.55569693552103",
                "lng": " -70.63729678022109"
            }
        ]
    },
    {
        "nombre_feria": "Fernández Albano",
        "nombre_region": "Metropolitana",
        "nombre_comuna": "San Ramón",
        "postura_feria": "Jueves y domingos",
        "tipo_forma": "linea",
        "coordenadas": [
            {
                "lat": "-33.53780466313105",
                "lng": "\n\t\t\t\t\t\t-70.64965750298903"
            },
            {
                "lat": "-33.53352326623519",
                "lng": " -70.6484820258694"
            }
        ]
    },
    {
        "nombre_feria": "Alpatacal",
        "nombre_region": "Metropolitana",
        "nombre_comuna": "San Ramón",
        "postura_feria": "Martes y viernes",
        "tipo_forma": "linea",
        "coordenadas": [
            {
                "lat": "-33.54780423117928",
                "lng": "\n\t\t\t\t\t\t-70.64369691082121"
            },
            {
                "lat": "-33.54879905787503",
                "lng": " -70.63677265538458"
            }
        ]
    },
    {
        "nombre_feria": "Barros Luco (El Parrón)",
        "nombre_region": "Metropolitana",
        "nombre_comuna": "San Ramón",
        "postura_feria": "Viernes",
        "tipo_forma": "linea",
        "coordenadas": [
            {
                "lat": "-33.52941822268249",
                "lng": "\n\t\t\t\t\t\t-70.64266058359097"
            },
            {
                "lat": "-33.52978507000177",
                "lng": " -70.64021205192799"
            }
        ]
    },
    {
        "nombre_feria": "Tristán Matta",
        "nombre_region": "Metropolitana",
        "nombre_comuna": "San Miguel",
        "postura_feria": "Jueves y domingos",
        "tipo_forma": "linea",
        "coordenadas": [
            {
                "lat": "-33.49966847380161",
                "lng": "\n\t\t\t\t\t\t-70.66549867794862"
            },
            {
                "lat": "-33.50119882036162",
                "lng": " -70.65991642933449"
            }
        ]
    },
    {
        "nombre_feria": "Carmen Mena",
        "nombre_region": "Metropolitana",
        "nombre_comuna": "San Miguel",
        "postura_feria": "Martes",
        "tipo_forma": "linea",
        "coordenadas": [
            {
                "lat": "-33.50644746754499",
                "lng": "\n\t\t\t\t\t\t-70.64873653365859"
            },
            {
                "lat": "-33.51026104885047",
                "lng": " -70.64989178291309"
            }
        ]
    },
    {
        "nombre_feria": "Salesianos",
        "nombre_region": "Metropolitana",
        "nombre_comuna": "San Miguel",
        "postura_feria": "Viernes",
        "tipo_forma": "linea",
        "coordenadas": [
            {
                "lat": "-33.49086415648021",
                "lng": "\n\t\t\t\t\t\t-70.64659607819257"
            },
            {
                "lat": "-33.48862464775102",
                "lng": " -70.64598130244816"
            }
        ]
    },
    {
        "nombre_feria": "Atacama",
        "nombre_region": "Metropolitana",
        "nombre_comuna": "San Miguel",
        "postura_feria": "Miércoles",
        "tipo_forma": "linea",
        "coordenadas": [
            {
                "lat": "-33.50838628896932",
                "lng": "\n\t\t\t\t\t\t-70.6679983214084"
            },
            {
                "lat": "-33.50902328087729",
                "lng": " -70.66587715448081"
            }
        ]
    },
    {
        "nombre_feria": "Chiloé",
        "nombre_region": "Metropolitana",
        "nombre_comuna": "San Miguel",
        "postura_feria": "Viernes",
        "tipo_forma": "linea",
        "coordenadas": [
            {
                "lat": "-33.510848900741",
                "lng": "\n\t\t\t\t\t\t-70.64714933089009"
            },
            {
                "lat": "-33.50561810742309",
                "lng": " -70.64630885282004"
            }
        ]
    },
    {
        "nombre_feria": "Soto Aguilar",
        "nombre_region": "Metropolitana",
        "nombre_comuna": "San Miguel",
        "postura_feria": "Jueves y domingos",
        "tipo_forma": "linea",
        "coordenadas": [
            {
                "lat": "-33.48562541485066",
                "lng": "\n\t\t\t\t\t\t-70.65728676914611"
            },
            {
                "lat": "-33.48605040471517",
                "lng": " -70.65558687864505"
            }
        ]
    },
    {
        "nombre_feria": "Las Industrias",
        "nombre_region": "Metropolitana",
        "nombre_comuna": "San Joaquín",
        "postura_feria": "Martes y viernes",
        "tipo_forma": "linea",
        "coordenadas": [
            {
                "lat": "-33.51467492354122",
                "lng": "\n\t\t\t\t\t\t-70.62077509940136"
            },
            {
                "lat": "-33.51457771450026",
                "lng": " -70.6209100153817"
            },
            {
                "lat": "-33.51296284398995",
                "lng": " -70.62195181851557"
            },
            {
                "lat": "-33.50943906195884",
                "lng": " -70.62339458210586"
            }
        ]
    },
    {
        "nombre_feria": "San Juan",
        "nombre_region": "Metropolitana",
        "nombre_comuna": "San Joaquín",
        "postura_feria": "Martes y viernes",
        "tipo_forma": "linea",
        "coordenadas": [
            {
                "lat": "-33.4941413062398",
                "lng": "\n\t\t\t\t\t\t-70.61863271785222"
            },
            {
                "lat": "-33.4939918979174",
                "lng": " -70.62372267844567"
            }
        ]
    },
    {
        "nombre_feria": "Castrina",
        "nombre_region": "Metropolitana",
        "nombre_comuna": "San Joaquín",
        "postura_feria": "Martes y sábados",
        "tipo_forma": "linea",
        "coordenadas": [
            {
                "lat": "-33.51700449694577",
                "lng": "\n\t\t\t\t\t\t-70.63661883591604"
            },
            {
                "lat": "-33.51613171235952",
                "lng": " -70.62830921683287"
            }
        ]
    },
    {
        "nombre_feria": "Feria Chile",
        "nombre_region": "Metropolitana",
        "nombre_comuna": "San Joaquín",
        "postura_feria": "Miércoles",
        "tipo_forma": "linea",
        "coordenadas": [
            {
                "lat": "-33.4804926526546",
                "lng": "\n\t\t\t\t\t\t-70.63019659578504"
            },
            {
                "lat": "-33.4795303477553",
                "lng": " -70.62506253423754"
            }
        ]
    },
    {
        "nombre_feria": "Gaspar de Soto",
        "nombre_region": "Metropolitana",
        "nombre_comuna": "San Joaquín",
        "postura_feria": "Miércoles y domingos",
        "tipo_forma": "linea",
        "coordenadas": [
            {
                "lat": "-33.49634937877352",
                "lng": "\n\t\t\t\t\t\t-70.63950545291731"
            },
            {
                "lat": "-33.49652082076536",
                "lng": " -70.63617547300512"
            }
        ]
    },
    {
        "nombre_feria": "La Legua",
        "nombre_region": "Metropolitana",
        "nombre_comuna": "San Joaquín",
        "postura_feria": "Jueves y domingos",
        "tipo_forma": "linea",
        "coordenadas": [
            {
                "lat": "-33.49020416194046",
                "lng": "\n\t\t\t\t\t\t-70.63115509479667"
            },
            {
                "lat": "-33.48974466211963",
                "lng": " -70.63119574839602"
            },
            {
                "lat": "-33.48756953935384",
                "lng": " -70.6355654329676"
            }
        ]
    },
    {
        "nombre_feria": "Feria Mussa",
        "nombre_region": "Metropolitana",
        "nombre_comuna": "San Joaquín",
        "postura_feria": "Jueves y domingos",
        "tipo_forma": "linea",
        "coordenadas": [
            {
                "lat": "-33.50256086282587",
                "lng": "\n\t\t\t\t\t\t-70.63886516087015"
            },
            {
                "lat": "-33.50176065504298",
                "lng": " -70.62745997701829"
            }
        ]
    },
    {
        "nombre_feria": "Navarrete",
        "nombre_region": "Metropolitana",
        "nombre_comuna": "San Joaquín",
        "postura_feria": "Sábados",
        "tipo_forma": "linea",
        "coordenadas": [
            {
                "lat": "-33.47518956624246",
                "lng": "\n\t\t\t\t\t\t-70.63350997236437"
            },
            {
                "lat": "-33.4797726132942",
                "lng": " -70.63228905759865"
            }
        ]
    },
    {
        "nombre_feria": "Feria Carvallo",
        "nombre_region": "Metropolitana",
        "nombre_comuna": "San Bernardo",
        "postura_feria": "Sábados",
        "tipo_forma": "linea",
        "coordenadas": [
            {
                "lat": "-33.60621422892854",
                "lng": "\n\t\t\t\t\t\t-70.70716128350119"
            },
            {
                "lat": "-33.60732426786419",
                "lng": " -70.70348758497782"
            }
        ]
    },
    {
        "nombre_feria": "Feria Costanera",
        "nombre_region": "Metropolitana",
        "nombre_comuna": "San Bernardo",
        "postura_feria": "Jueves y domingos",
        "tipo_forma": "linea",
        "coordenadas": [
            {
                "lat": "-33.58846146952227",
                "lng": "\n\t\t\t\t\t\t-70.71035284612482"
            },
            {
                "lat": "-33.59322168687028",
                "lng": " -70.71189515438755"
            }
        ]
    },
    {
        "nombre_feria": "Feria Antonia Varas",
        "nombre_region": "Metropolitana",
        "nombre_comuna": "San Bernardo",
        "postura_feria": "Jueves y domingos",
        "tipo_forma": "linea",
        "coordenadas": [
            {
                "lat": "-33.59701995035035",
                "lng": "\n\t\t\t\t\t\t-70.69349662775336"
            },
            {
                "lat": "-33.59590849441489",
                "lng": " -70.69729545257763"
            }
        ]
    },
    {
        "nombre_feria": "Feria El Olivo",
        "nombre_region": "Metropolitana",
        "nombre_comuna": "San Bernardo",
        "postura_feria": "Miércoles y sábados",
        "tipo_forma": "linea",
        "coordenadas": [
            {
                "lat": "-33.58201985719713",
                "lng": "\n\t\t\t\t\t\t-70.6868734388611"
            },
            {
                "lat": "-33.58630943224136",
                "lng": " -70.68944429672716"
            }
        ]
    },
    {
        "nombre_feria": "Feria Balmaceda 1",
        "nombre_region": "Metropolitana",
        "nombre_comuna": "San Bernardo",
        "postura_feria": "Martes y  viernes",
        "tipo_forma": "linea",
        "coordenadas": [
            {
                "lat": "-33.59062547951455",
                "lng": "\n\t\t\t\t\t\t-70.68590200303787"
            },
            {
                "lat": "-33.59143432612228",
                "lng": " -70.68432651658469"
            }
        ]
    },
    {
        "nombre_feria": "Feria Balmaceda 2",
        "nombre_region": "Metropolitana",
        "nombre_comuna": "San Bernardo",
        "postura_feria": "Miércoles y sábados",
        "tipo_forma": "linea",
        "coordenadas": [
            {
                "lat": "-33.5965128806837",
                "lng": "\n\t\t\t\t\t\t-70.66749928066515"
            },
            {
                "lat": "-33.59367582754306",
                "lng": " -70.67967351036845"
            }
        ]
    },
    {
        "nombre_feria": "Feria Yungay",
        "nombre_region": "Metropolitana",
        "nombre_comuna": "San Bernardo",
        "postura_feria": "Martes y sábados",
        "tipo_forma": "linea",
        "coordenadas": [
            {
                "lat": "-33.57926659500578",
                "lng": "\n\t\t\t\t\t\t-70.70371440775661"
            },
            {
                "lat": "-33.57878861774489",
                "lng": " -70.70584865777643"
            }
        ]
    },
    {
        "nombre_feria": "Feria Lo Blanco",
        "nombre_region": "Metropolitana",
        "nombre_comuna": "San Bernardo",
        "postura_feria": "Jueves y domingos",
        "tipo_forma": "linea",
        "coordenadas": [
            {
                "lat": "-33.58433841221631",
                "lng": "\n\t\t\t\t\t\t-70.66734829939131"
            },
            {
                "lat": "-33.58368995741858",
                "lng": " -70.67084512554219"
            }
        ]
    },
    {
        "nombre_feria": "Feria persa",
        "nombre_region": "Metropolitana",
        "nombre_comuna": "San Bernardo",
        "postura_feria": "Domingos",
        "tipo_forma": "linea",
        "coordenadas": [
            {
                "lat": "-33.57914531434931",
                "lng": "\n\t\t\t\t\t\t-70.69427005861242"
            },
            {
                "lat": "-33.58565654792368",
                "lng": " -70.67765158499381"
            }
        ]
    },
    {
        "nombre_feria": "Bulnes",
        "nombre_region": "Metropolitana",
        "nombre_comuna": "Renca",
        "postura_feria": "Miércoles y sábados",
        "tipo_forma": "linea",
        "coordenadas": [
            {
                "lat": "-33.41473878016871",
                "lng": "\n\t\t\t\t\t\t-70.68607584393953"
            },
            {
                "lat": "-33.41382216810587",
                "lng": " -70.68636540679904"
            }
        ]
    },
    {
        "nombre_feria": "Huamachuco 2",
        "nombre_region": "Metropolitana",
        "nombre_comuna": "Renca",
        "postura_feria": "Miércoles y sábados",
        "tipo_forma": "linea",
        "coordenadas": [
            {
                "lat": "-33.39472195134618",
                "lng": "\n\t\t\t\t\t\t-70.69807313579916"
            },
            {
                "lat": "-33.39371634638151",
                "lng": " -70.69775122770801"
            }
        ]
    },
    {
        "nombre_feria": "Los Acacios",
        "nombre_region": "Metropolitana",
        "nombre_comuna": "Renca",
        "postura_feria": "Jueves y domingos",
        "tipo_forma": "linea",
        "coordenadas": [
            {
                "lat": "-33.40402967179562",
                "lng": "\n\t\t\t\t\t\t-70.69159877878548"
            },
            {
                "lat": "-33.40666483059827",
                "lng": " -70.69186422821583"
            },
            {
                "lat": "-33.40767346360342",
                "lng": " -70.69240496495925"
            }
        ]
    },
    {
        "nombre_feria": "Huamachuco 1",
        "nombre_region": "Metropolitana",
        "nombre_comuna": "Renca",
        "postura_feria": "Martes y viernes",
        "tipo_forma": "linea",
        "coordenadas": [
            {
                "lat": "-33.40080345624729",
                "lng": "\n\t\t\t\t\t\t-70.69933735502464"
            },
            {
                "lat": "-33.39831166050646",
                "lng": " -70.70089788601872"
            }
        ]
    },
    {
        "nombre_feria": "Chilectra",
        "nombre_region": "Metropolitana",
        "nombre_comuna": "Renca",
        "postura_feria": "Sábado y domingos",
        "tipo_forma": "linea",
        "coordenadas": [
            {
                "lat": "-33.40687321031484",
                "lng": "\n\t\t\t\t\t\t-70.70845218348867"
            },
            {
                "lat": "-33.40481624233313",
                "lng": " -70.70956906667379"
            }
        ]
    },
    {
        "nombre_feria": "Colocolo",
        "nombre_region": "Metropolitana",
        "nombre_comuna": "Renca",
        "postura_feria": "Jueves y domingos",
        "tipo_forma": "linea",
        "coordenadas": [
            {
                "lat": "-33.40453504421691",
                "lng": "\n\t\t\t\t\t\t-70.72489232222082"
            },
            {
                "lat": "-33.40114528927477",
                "lng": " -70.72633162503176"
            }
        ]
    },
    {
        "nombre_feria": "Dorsal (Balmaceda)",
        "nombre_region": "Metropolitana",
        "nombre_comuna": "Renca",
        "postura_feria": "Sábados",
        "tipo_forma": "linea",
        "coordenadas": [
            {
                "lat": "-33.4032855305115",
                "lng": "\n\t\t\t\t\t\t-70.70004103994408"
            },
            {
                "lat": "-33.40318636258241",
                "lng": " -70.70143899010873"
            }
        ]
    },
    {
        "nombre_feria": "Lourdes",
        "nombre_region": "Metropolitana",
        "nombre_comuna": "Renca",
        "postura_feria": "Martes y  viernes",
        "tipo_forma": "linea",
        "coordenadas": [
            {
                "lat": "-33.40152224912637",
                "lng": "\n\t\t\t\t\t\t-70.71080790841225"
            },
            {
                "lat": "-33.4013379069075",
                "lng": " -70.71206310634716"
            }
        ]
    },
    {
        "nombre_feria": "Manuel Rodríguez",
        "nombre_region": "Metropolitana",
        "nombre_comuna": "Renca",
        "postura_feria": "Miércoles",
        "tipo_forma": "linea",
        "coordenadas": [
            {
                "lat": "-33.39571875555194",
                "lng": "\n\t\t\t\t\t\t-70.72331132013377"
            },
            {
                "lat": "-33.39607198432953",
                "lng": " -70.72318607778354"
            }
        ]
    },
    {
        "nombre_feria": "Condell",
        "nombre_region": "Metropolitana",
        "nombre_comuna": "Renca",
        "postura_feria": "Miércoles y sábados",
        "tipo_forma": "linea",
        "coordenadas": [
            {
                "lat": "-33.40652081382614",
                "lng": "\n\t\t\t\t\t\t-70.72757814225236"
            },
            {
                "lat": "-33.40874283761087",
                "lng": " -70.72472635862749"
            }
        ]
    },
    {
        "nombre_feria": "Vicuña Mackenna",
        "nombre_region": "Metropolitana",
        "nombre_comuna": "Renca",
        "postura_feria": "Jueves y domingos",
        "tipo_forma": "linea",
        "coordenadas": [
            {
                "lat": "-33.40555707428243",
                "lng": "\n\t\t\t\t\t\t-70.74532650340868"
            },
            {
                "lat": "-33.4046449969774",
                "lng": " -70.74490112370538"
            },
            {
                "lat": "-33.40437479670197",
                "lng": " -70.74479148907851"
            },
            {
                "lat": "-33.40414709954349",
                "lng": " -70.74476002039118"
            },
            {
                "lat": "-33.4039194031808",
                "lng": " -70.74478100394425"
            },
            {
                "lat": "-33.40296572052191",
                "lng": " -70.7451103809227"
            }
        ]
    },
    {
        "nombre_feria": "Las Torres",
        "nombre_region": "Metropolitana",
        "nombre_comuna": "Renca",
        "postura_feria": "Martes y viernes",
        "tipo_forma": "linea",
        "coordenadas": [
            {
                "lat": "-33.40691972658959",
                "lng": "\n\t\t\t\t\t\t-70.73448566759956"
            },
            {
                "lat": "-33.40782858636637",
                "lng": " -70.73451906637887"
            },
            {
                "lat": "-33.40985983585237",
                "lng": " -70.73415036348226"
            }
        ]
    },
    {
        "nombre_feria": "Recoleta",
        "nombre_region": "Metropolitana",
        "nombre_comuna": "Recoleta",
        "postura_feria": "Viernes",
        "tipo_forma": "linea",
        "coordenadas": [
            {
                "lat": "-33.40037928980348",
                "lng": "\n\t\t\t\t\t\t-70.64180529996203"
            },
            {
                "lat": "-33.40039696224122",
                "lng": " -70.64141383189292"
            },
            {
                "lat": "-33.40140386103971",
                "lng": " -70.63661572299866"
            }
        ]
    },
    {
        "nombre_feria": "Zapadores",
        "nombre_region": "Metropolitana",
        "nombre_comuna": "Recoleta",
        "postura_feria": "Martes",
        "tipo_forma": "linea",
        "coordenadas": [
            {
                "lat": "-33.38736218266532",
                "lng": "\n\t\t\t\t\t\t-70.65022700333161"
            },
            {
                "lat": "-33.38741465106051",
                "lng": " -70.64993596444198"
            },
            {
                "lat": "-33.38754420986314",
                "lng": " -70.64953532879993"
            },
            {
                "lat": "-33.39003781792778",
                "lng": " -70.64416019782163"
            },
            {
                "lat": "-33.39032955336524",
                "lng": " -70.6437614527983"
            }
        ]
    },
    {
        "nombre_feria": "Einstein",
        "nombre_region": "Metropolitana",
        "nombre_comuna": "Recoleta",
        "postura_feria": "Jueves",
        "tipo_forma": "linea",
        "coordenadas": [
            {
                "lat": "-33.40627771571018",
                "lng": "\n\t\t\t\t\t\t-70.63026932420462"
            },
            {
                "lat": "-33.40662128759953",
                "lng": " -70.62781130629168"
            }
        ]
    },
    {
        "nombre_feria": "La Serena",
        "nombre_region": "Metropolitana",
        "nombre_comuna": "Recoleta",
        "postura_feria": "Domingos",
        "tipo_forma": "linea",
        "coordenadas": [
            {
                "lat": "-33.39491771994231",
                "lng": "\n\t\t\t\t\t\t-70.65373060259185"
            },
            {
                "lat": "-33.39534125189659",
                "lng": " -70.64277748585572"
            }
        ]
    },
    {
        "nombre_feria": "Huechuraba-Recoleta",
        "nombre_region": "Metropolitana",
        "nombre_comuna": "Recoleta",
        "postura_feria": "Jueves",
        "tipo_forma": "linea",
        "coordenadas": [
            {
                "lat": "-33.39528820638488",
                "lng": "\n\t\t\t\t\t\t-70.62978875643643"
            },
            {
                "lat": "-33.39686784475691",
                "lng": " -70.63077496932614"
            },
            {
                "lat": "-33.39872530371216",
                "lng": " -70.63145855779875"
            }
        ]
    },
    {
        "nombre_feria": "Huechuraba Recoleta Arzobispo Valdivieso",
        "nombre_region": "Metropolitana",
        "nombre_comuna": "Recoleta",
        "postura_feria": "Viernes",
        "tipo_forma": "linea",
        "coordenadas": [
            {
                "lat": "-33.41152400749487",
                "lng": "\n\t\t\t\t\t\t-70.63059306897755"
            },
            {
                "lat": "-33.41121743522011",
                "lng": " -70.62792317090205"
            }
        ]
    },
    {
        "nombre_feria": "El Roble",
        "nombre_region": "Metropolitana",
        "nombre_comuna": "Recoleta",
        "postura_feria": "Sábados",
        "tipo_forma": "linea",
        "coordenadas": [
            {
                "lat": "-33.40633052678452",
                "lng": "\n\t\t\t\t\t\t-70.63899452256364"
            },
            {
                "lat": "-33.40623668178654",
                "lng": " -70.6352726727376"
            }
        ]
    },
    {
        "nombre_feria": "Conchalí Recoleta, Héroes de la Concepción",
        "nombre_region": "Metropolitana",
        "nombre_comuna": "Recoleta",
        "postura_feria": "Sábados",
        "tipo_forma": "linea",
        "coordenadas": [
            {
                "lat": "-33.40221464683817",
                "lng": "\n\t\t\t\t\t\t-70.62834350026108"
            },
            {
                "lat": "-33.40171152951809",
                "lng": " -70.62660046728035"
            }
        ]
    },
    {
        "nombre_feria": "Los Sauces",
        "nombre_region": "Metropolitana",
        "nombre_comuna": "Quinta Normal",
        "postura_feria": "Martes y sábados",
        "tipo_forma": "linea",
        "coordenadas": [
            {
                "lat": "-33.41452637425135",
                "lng": "\n\t\t\t\t\t\t-70.7052062405904"
            },
            {
                "lat": "-33.41331060544376",
                "lng": " -70.70881083087599"
            }
        ]
    },
    {
        "nombre_feria": "José Tobías",
        "nombre_region": "Metropolitana",
        "nombre_comuna": "Quinta Normal",
        "postura_feria": "Jueves",
        "tipo_forma": "linea",
        "coordenadas": [
            {
                "lat": "-33.41412563554412",
                "lng": "\n\t\t\t\t\t\t-70.69934095003231"
            },
            {
                "lat": "-33.41906540834214",
                "lng": " -70.69897008747672"
            }
        ]
    },
    {
        "nombre_feria": "Marcelo Fitte",
        "nombre_region": "Metropolitana",
        "nombre_comuna": "Quinta Normal",
        "postura_feria": "Domingos",
        "tipo_forma": "linea",
        "coordenadas": [
            {
                "lat": "-33.41757016836885",
                "lng": "\n\t\t\t\t\t\t-70.70103881963941"
            },
            {
                "lat": "-33.4172416250569",
                "lng": " -70.69484353575278"
            }
        ]
    },
    {
        "nombre_feria": "Ex La Plata",
        "nombre_region": "Metropolitana",
        "nombre_comuna": "Quinta Normal",
        "postura_feria": "Domingos",
        "tipo_forma": "linea",
        "coordenadas": [
            {
                "lat": "-33.43056138975745",
                "lng": "\n\t\t\t\t\t\t-70.69120307628874"
            },
            {
                "lat": "-33.42587254718271",
                "lng": " -70.69034381523693"
            }
        ]
    },
    {
        "nombre_feria": "Lope de Ulloa",
        "nombre_region": "Metropolitana",
        "nombre_comuna": "Quinta Normal",
        "postura_feria": "Jueves",
        "tipo_forma": "linea",
        "coordenadas": [
            {
                "lat": "-33.42643286170573",
                "lng": "\n\t\t\t\t\t\t-70.68856818416455"
            },
            {
                "lat": "-33.43228806482068",
                "lng": " -70.68963493894415"
            }
        ]
    },
    {
        "nombre_feria": "Alberdi 1",
        "nombre_region": "Metropolitana",
        "nombre_comuna": "Quinta Normal",
        "postura_feria": "Jueves y domingos",
        "tipo_forma": "linea",
        "coordenadas": [
            {
                "lat": "-33.42295787794068",
                "lng": "\n\t\t\t\t\t\t-70.71129561905383"
            },
            {
                "lat": "-33.42101506059547",
                "lng": " -70.71073109149887"
            }
        ]
    },
    {
        "nombre_feria": "Alsino",
        "nombre_region": "Metropolitana",
        "nombre_comuna": "Quinta Normal",
        "postura_feria": "Sábados",
        "tipo_forma": "linea",
        "coordenadas": [
            {
                "lat": "-33.42513412605598",
                "lng": "\n\t\t\t\t\t\t-70.70868293481907"
            },
            {
                "lat": "-33.42620081016777",
                "lng": " -70.70337841927244"
            }
        ]
    },
    {
        "nombre_feria": "Alberdi 2",
        "nombre_region": "Metropolitana",
        "nombre_comuna": "Quinta Normal",
        "postura_feria": "Miércoles",
        "tipo_forma": "linea",
        "coordenadas": [
            {
                "lat": "-33.43132996301069",
                "lng": "\n\t\t\t\t\t\t-70.71356842729583"
            },
            {
                "lat": "-33.4269958978923",
                "lng": " -70.71243741720114"
            }
        ]
    },
    {
        "nombre_feria": "Eduardo Charme",
        "nombre_region": "Metropolitana",
        "nombre_comuna": "Quinta Normal",
        "postura_feria": "Viernes",
        "tipo_forma": "linea",
        "coordenadas": [
            {
                "lat": "-33.43525861840542",
                "lng": "\n\t\t\t\t\t\t-70.70105345936591"
            },
            {
                "lat": "-33.43209693152046",
                "lng": " -70.70165139294792"
            }
        ]
    },
    {
        "nombre_feria": "Tránsito",
        "nombre_region": "Metropolitana",
        "nombre_comuna": "Quinta Normal",
        "postura_feria": "Viernes",
        "tipo_forma": "linea",
        "coordenadas": [
            {
                "lat": "-33.43470473744348",
                "lng": "\n\t\t\t\t\t\t-70.71528869583132"
            },
            {
                "lat": "-33.43309417584718",
                "lng": " -70.7207065705874"
            }
        ]
    },
    {
        "nombre_feria": "Mercurio",
        "nombre_region": "Metropolitana",
        "nombre_comuna": "Quinta Normal",
        "postura_feria": "Miércoles",
        "tipo_forma": "linea",
        "coordenadas": [
            {
                "lat": "-33.43443694947354",
                "lng": "\n\t\t\t\t\t\t-70.71652384657628"
            },
            {
                "lat": "-33.43717808045714",
                "lng": " -70.71707302664217"
            }
        ]
    },
    {
        "nombre_feria": "José Baeza",
        "nombre_region": "Metropolitana",
        "nombre_comuna": "Quinta Normal",
        "postura_feria": "Martes",
        "tipo_forma": "linea",
        "coordenadas": [
            {
                "lat": "-33.43621567955501",
                "lng": "\n\t\t\t\t\t\t-70.70599932835533"
            },
            {
                "lat": "-33.43728497322771",
                "lng": " -70.70597472476847"
            },
            {
                "lat": "-33.43767545184461",
                "lng": " -70.70589886452822"
            },
            {
                "lat": "-33.4407684591227",
                "lng": " -70.70468534714793"
            }
        ]
    },
    {
        "nombre_feria": "Victorino Laynez",
        "nombre_region": "Metropolitana",
        "nombre_comuna": "Quinta Normal",
        "postura_feria": "Miércoles",
        "tipo_forma": "linea",
        "coordenadas": [
            {
                "lat": "-33.44551328832956",
                "lng": "\n\t\t\t\t\t\t-70.69824793150769"
            },
            {
                "lat": "-33.4414514563064",
                "lng": " -70.69791991462647"
            }
        ]
    },
    {
        "nombre_feria": "San Gumersindo",
        "nombre_region": "Metropolitana",
        "nombre_comuna": "Quinta Normal",
        "postura_feria": "Viernes",
        "tipo_forma": "linea",
        "coordenadas": [
            {
                "lat": "-33.44775618043396",
                "lng": "\n\t\t\t\t\t\t-70.694818035514"
            },
            {
                "lat": "-33.44497630651105",
                "lng": " -70.69467533130057"
            }
        ]
    },
    {
        "nombre_feria": "San Francisco Javier",
        "nombre_region": "Metropolitana",
        "nombre_comuna": "Quinta Normal",
        "postura_feria": "Martes",
        "tipo_forma": "linea",
        "coordenadas": [
            {
                "lat": "-33.44474162171149",
                "lng": "\n\t\t\t\t\t\t-70.69334486034428"
            },
            {
                "lat": "-33.44617884337238",
                "lng": " -70.69337279408428"
            }
        ]
    },
    {
        "nombre_feria": "Las Violetas",
        "nombre_region": "Metropolitana",
        "nombre_comuna": "Quilicura",
        "postura_feria": "Sábados",
        "tipo_forma": "linea",
        "coordenadas": [
            {
                "lat": "-33.36892315721833",
                "lng": "\n\t\t\t\t\t\t-70.74382391061187"
            },
            {
                "lat": "-33.36908014993159",
                "lng": " -70.74354426319604"
            },
            {
                "lat": "-33.37012718345549",
                "lng": " -70.73856744459363"
            }
        ]
    },
    {
        "nombre_feria": "Lo Marcoleta 1",
        "nombre_region": "Metropolitana",
        "nombre_comuna": "Quilicura",
        "postura_feria": "Viernes",
        "tipo_forma": "linea",
        "coordenadas": [
            {
                "lat": "-33.36040254282831",
                "lng": "\n\t\t\t\t\t\t-70.745419733744"
            },
            {
                "lat": "-33.36192839866888",
                "lng": " -70.75358658817996"
            }
        ]
    },
    {
        "nombre_feria": "Edison",
        "nombre_region": "Metropolitana",
        "nombre_comuna": "Quinta Normal",
        "postura_feria": "Sábados",
        "tipo_forma": "linea",
        "coordenadas": [
            {
                "lat": "-33.43703574449646",
                "lng": "\n\t\t\t\t\t\t-70.69493571008391"
            },
            {
                "lat": "-33.43763377642367",
                "lng": " -70.69935716321801"
            },
            {
                "lat": "-33.43778536386459",
                "lng": " -70.69978701451159"
            },
            {
                "lat": "-33.4383685852164",
                "lng": " -70.70136510544242"
            },
            {
                "lat": "-33.43885376969445",
                "lng": " -70.70304375834891"
            }
        ]
    },
    {
        "nombre_feria": "San Enrique",
        "nombre_region": "Metropolitana",
        "nombre_comuna": "Quilicura",
        "postura_feria": "Domingos",
        "tipo_forma": "linea",
        "coordenadas": [
            {
                "lat": "-33.36575922936185",
                "lng": "\n\t\t\t\t\t\t-70.74309875411494"
            },
            {
                "lat": "-33.36515526892372",
                "lng": " -70.74295329740816"
            },
            {
                "lat": "-33.36507543504241",
                "lng": " -70.74290342601127"
            },
            {
                "lat": "-33.36501642682946",
                "lng": " -70.74282446218645"
            },
            {
                "lat": "-33.36475956490271",
                "lng": " -70.74228833957301"
            },
            {
                "lat": "-33.3618468314744",
                "lng": " -70.74418485306008"
            }
        ]
    },
    {
        "nombre_feria": "Lo Marcoleta 2",
        "nombre_region": "Metropolitana",
        "nombre_comuna": "Quilicura",
        "postura_feria": "Viernes",
        "tipo_forma": "linea",
        "coordenadas": [
            {
                "lat": "-33.35774822938915",
                "lng": "\n\t\t\t\t\t\t-70.73375293125345"
            },
            {
                "lat": "-33.35765862055303",
                "lng": " -70.72937085629458"
            }
        ]
    },
    {
        "nombre_feria": "Lo Marcoleta 3",
        "nombre_region": "Metropolitana",
        "nombre_comuna": "Quilicura",
        "postura_feria": "Miércoles",
        "tipo_forma": "linea",
        "coordenadas": [
            {
                "lat": "-33.36291710282269",
                "lng": "\n\t\t\t\t\t\t-70.76080887626837"
            },
            {
                "lat": "-33.36196750453717",
                "lng": " -70.75562308476248"
            },
            {
                "lat": "-33.3617635692449",
                "lng": " -70.75416575545938"
            }
        ]
    },
    {
        "nombre_feria": "Villa Sodimac",
        "nombre_region": "Metropolitana",
        "nombre_comuna": "Quilicura",
        "postura_feria": "Jueves",
        "tipo_forma": "linea",
        "coordenadas": [
            {
                "lat": "-33.36667693307279",
                "lng": "\n\t\t\t\t\t\t-70.71370292804673"
            },
            {
                "lat": "-33.36556397478231",
                "lng": " -70.71406872594628"
            },
            {
                "lat": "-33.36546470878608",
                "lng": " -70.71407953078904"
            },
            {
                "lat": "-33.36379523248204",
                "lng": " -70.71394627232"
            }
        ]
    },
    {
        "nombre_feria": "Hermanos Carrera",
        "nombre_region": "Metropolitana",
        "nombre_comuna": "Quilicura",
        "postura_feria": "Sábados",
        "tipo_forma": "linea",
        "coordenadas": [
            {
                "lat": "-33.35750042279491",
                "lng": "\n\t\t\t\t\t\t-70.72067509126448"
            },
            {
                "lat": "-33.35689069938895",
                "lng": " -70.71508773581544"
            }
        ]
    },
    {
        "nombre_feria": "Bernardo O'Higgins",
        "nombre_region": "Metropolitana",
        "nombre_comuna": "Quilicura",
        "postura_feria": "Sábados",
        "tipo_forma": "linea",
        "coordenadas": [
            {
                "lat": "-33.36297521644985",
                "lng": "\n\t\t\t\t\t\t-70.72964121979115"
            },
            {
                "lat": "-33.36031967395626",
                "lng": " -70.7293118128198"
            }
        ]
    },
    {
        "nombre_feria": "Carampangue",
        "nombre_region": "Metropolitana",
        "nombre_comuna": "Quilicura",
        "postura_feria": "Domingos",
        "tipo_forma": "linea",
        "coordenadas": [
            {
                "lat": "-33.36871237054906",
                "lng": "\n\t\t\t\t\t\t-70.71800296421245"
            },
            {
                "lat": "-33.36898495722308",
                "lng": " -70.7166039908962"
            },
            {
                "lat": "-33.36895711887012",
                "lng": " -70.71441925532471"
            },
            {
                "lat": "-33.3690802521303",
                "lng": " -70.71387886850773"
            }
        ]
    },
    {
        "nombre_feria": "Volcán Villarrica",
        "nombre_region": "Metropolitana",
        "nombre_comuna": "Quilicura",
        "postura_feria": "Martes",
        "tipo_forma": "linea",
        "coordenadas": [
            {
                "lat": "-33.36480271934536",
                "lng": "\n\t\t\t\t\t\t-70.74930394255506"
            },
            {
                "lat": "-33.36282539850575",
                "lng": " -70.74907498038533"
            }
        ]
    },
    {
        "nombre_feria": "Ramón Rosales",
        "nombre_region": "Metropolitana",
        "nombre_comuna": "Quilicura",
        "postura_feria": "Miércoles",
        "tipo_forma": "linea",
        "coordenadas": [
            {
                "lat": "-33.36909953936181",
                "lng": "\n\t\t\t\t\t\t-70.72488031710284"
            },
            {
                "lat": "-33.37019120351337",
                "lng": " -70.72135701964847"
            }
        ]
    },
    {
        "nombre_feria": "Kilimanjaro",
        "nombre_region": "Metropolitana",
        "nombre_comuna": "Quilicura",
        "postura_feria": "Sábados",
        "tipo_forma": "linea",
        "coordenadas": [
            {
                "lat": "-33.35142701338125",
                "lng": "\n\t\t\t\t\t\t-70.74756927536316"
            },
            {
                "lat": "-33.35173244195585",
                "lng": " -70.74494696270622"
            }
        ]
    },
    {
        "nombre_feria": "Toconao",
        "nombre_region": "Metropolitana",
        "nombre_comuna": "Quilicura",
        "postura_feria": "Jueves",
        "tipo_forma": "linea",
        "coordenadas": [
            {
                "lat": "-33.36790431187631",
                "lng": "\n\t\t\t\t\t\t-70.74341521366421"
            },
            {
                "lat": "-33.36602629805351",
                "lng": " -70.74279072543828"
            }
        ]
    },
    {
        "nombre_feria": "Lo Marcoleta 4",
        "nombre_region": "Metropolitana",
        "nombre_comuna": "Quilicura",
        "postura_feria": "Martes",
        "tipo_forma": "linea",
        "coordenadas": [
            {
                "lat": "-33.36169155801925",
                "lng": "\n\t\t\t\t\t\t-70.75355984494476"
            },
            {
                "lat": "-33.36024636932053",
                "lng": " -70.74574569827112"
            }
        ]
    },
    {
        "nombre_feria": "Feria Grande",
        "nombre_region": "Metropolitana",
        "nombre_comuna": "Puente Alto",
        "postura_feria": "Martes",
        "tipo_forma": "linea",
        "coordenadas": [
            {
                "lat": "-33.6183314675351",
                "lng": "\n\t\t\t\t\t\t-70.57765615871887"
            },
            {
                "lat": "-33.6167104225832",
                "lng": " -70.57799172799398"
            }
        ]
    },
    {
        "nombre_feria": "Feria Los Nogales",
        "nombre_region": "Metropolitana",
        "nombre_comuna": "Puente Alto",
        "postura_feria": "Jueves",
        "tipo_forma": "linea",
        "coordenadas": [
            {
                "lat": "-33.59363447475759",
                "lng": "\n\t\t\t\t\t\t-70.57327212781644"
            },
            {
                "lat": "-33.59168889925776",
                "lng": " -70.57351517739947"
            }
        ]
    },
    {
        "nombre_feria": "Feria Los Chacareros ",
        "nombre_region": "Metropolitana",
        "nombre_comuna": "Puente Alto",
        "postura_feria": "Miércoles",
        "tipo_forma": "linea",
        "coordenadas": [
            {
                "lat": "-33.57104229086018",
                "lng": "\n\t\t\t\t\t\t-70.57636819367843"
            },
            {
                "lat": "-33.57113131908132",
                "lng": " -70.57593512500678"
            },
            {
                "lat": "-33.57108990146479",
                "lng": " -70.57567427222106"
            },
            {
                "lat": "-33.57101444572541",
                "lng": " -70.57480709057923"
            },
            {
                "lat": "-33.57104089410977",
                "lng": " -70.57436932034648"
            },
            {
                "lat": "-33.57118593756248",
                "lng": " -70.57398714824051"
            },
            {
                "lat": "-33.57138162689325",
                "lng": " -70.57360945663059"
            },
            {
                "lat": "-33.57193776325769",
                "lng": " -70.57326680699796"
            },
            {
                "lat": "-33.57216810174546",
                "lng": " -70.57297881604794"
            },
            {
                "lat": "-33.57222142021858",
                "lng": " -70.5727731261467"
            },
            {
                "lat": "-33.5722147131582",
                "lng": " -70.57165776607707"
            }
        ]
    },
    {
        "nombre_feria": "Feria Luis Matte",
        "nombre_region": "Metropolitana",
        "nombre_comuna": "Puente Alto",
        "postura_feria": "Martes",
        "tipo_forma": "linea",
        "coordenadas": [
            {
                "lat": "-33.6153228353329",
                "lng": "\n\t\t\t\t\t\t-70.61897541864076"
            },
            {
                "lat": "-33.61417783063727",
                "lng": " -70.61899896544456"
            }
        ]
    },
    {
        "nombre_feria": "Feria El Esfuerzo ",
        "nombre_region": "Metropolitana",
        "nombre_comuna": "Puente Alto",
        "postura_feria": "Martes",
        "tipo_forma": "linea",
        "coordenadas": [
            {
                "lat": "-33.59860650708002",
                "lng": "\n\t\t\t\t\t\t-70.5587019728174"
            },
            {
                "lat": "-33.59667155902866",
                "lng": " -70.55909363062842"
            }
        ]
    },
    {
        "nombre_feria": "Feria Licanray ",
        "nombre_region": "Metropolitana",
        "nombre_comuna": "Puente Alto",
        "postura_feria": "Martes",
        "tipo_forma": "linea",
        "coordenadas": [
            {
                "lat": "-33.57202656460373",
                "lng": "\n\t\t\t\t\t\t-70.56103314567916"
            },
            {
                "lat": "-33.57242528842152",
                "lng": " -70.56573503151961"
            }
        ]
    },
    {
        "nombre_feria": "Feria Bajos de Mena ",
        "nombre_region": "Metropolitana",
        "nombre_comuna": "Puente Alto",
        "postura_feria": "Miércoles y sábados",
        "tipo_forma": "linea",
        "coordenadas": [
            {
                "lat": "-33.62012788789883",
                "lng": "\n\t\t\t\t\t\t-70.6052231046181"
            },
            {
                "lat": "-33.62069223047943",
                "lng": " -70.6103746748972"
            },
            {
                "lat": "-33.62086700724635",
                "lng": " -70.61094309654325"
            },
            {
                "lat": "-33.62113644783543",
                "lng": " -70.61257404176806"
            }
        ]
    },
    {
        "nombre_feria": "Feria Casas Viejas ",
        "nombre_region": "Metropolitana",
        "nombre_comuna": "Puente Alto",
        "postura_feria": "Martes",
        "tipo_forma": "linea",
        "coordenadas": [
            {
                "lat": "-33.61479367903275",
                "lng": "\n\t\t\t\t\t\t-70.5660771991201"
            },
            {
                "lat": "-33.61669243800929",
                "lng": " -70.56567147111375"
            }
        ]
    },
    {
        "nombre_feria": "Feria Marta Brunet",
        "nombre_region": "Metropolitana",
        "nombre_comuna": "Puente Alto",
        "postura_feria": "Martes y viernes",
        "tipo_forma": "linea",
        "coordenadas": [
            {
                "lat": "-33.62434541239687",
                "lng": "\n\t\t\t\t\t\t-70.5941319662108"
            },
            {
                "lat": "-33.62643841336215",
                "lng": " -70.59372048665328"
            }
        ]
    },
    {
        "nombre_feria": "Feria Grande",
        "nombre_region": "Metropolitana",
        "nombre_comuna": "Puente Alto",
        "postura_feria": "Miércoles",
        "tipo_forma": "linea",
        "coordenadas": [
            {
                "lat": "-33.60563128046081",
                "lng": "\n\t\t\t\t\t\t-70.57386864112895"
            },
            {
                "lat": "-33.60482003859273",
                "lng": " -70.56798409648347"
            }
        ]
    },
    {
        "nombre_feria": "Feria Grande ",
        "nombre_region": "Metropolitana",
        "nombre_comuna": "Puente Alto",
        "postura_feria": "Jueves",
        "tipo_forma": "linea",
        "coordenadas": [
            {
                "lat": "-33.62265100011071",
                "lng": "\n\t\t\t\t\t\t-70.59035511579329"
            },
            {
                "lat": "-33.61659066119811",
                "lng": " -70.59085846261517"
            }
        ]
    },
    {
        "nombre_feria": "Feria Grande ",
        "nombre_region": "Metropolitana",
        "nombre_comuna": "Puente Alto",
        "postura_feria": "Viernes",
        "tipo_forma": "linea",
        "coordenadas": [
            {
                "lat": "-33.58596432500038",
                "lng": "\n\t\t\t\t\t\t-70.57943570971707"
            },
            {
                "lat": "-33.5858637173608",
                "lng": " -70.57718057264411"
            }
        ]
    },
    {
        "nombre_feria": "Feria Grande ",
        "nombre_region": "Metropolitana",
        "nombre_comuna": "Puente Alto",
        "postura_feria": "Sábados",
        "tipo_forma": "linea",
        "coordenadas": [
            {
                "lat": "-33.60768605041182",
                "lng": "\n\t\t\t\t\t\t-70.5734307379297"
            },
            {
                "lat": "-33.61235803070267",
                "lng": " -70.57249817263695"
            }
        ]
    },
    {
        "nombre_feria": "Feria Grande",
        "nombre_region": "Metropolitana",
        "nombre_comuna": "Puente Alto",
        "postura_feria": "Domingos",
        "tipo_forma": "linea",
        "coordenadas": [
            {
                "lat": "-33.61646759009936",
                "lng": "\n\t\t\t\t\t\t-70.59067217875342"
            },
            {
                "lat": "-33.61594648431247",
                "lng": " -70.5884030917794"
            },
            {
                "lat": "-33.61538717206439",
                "lng": " -70.58562229937827"
            },
            {
                "lat": "-33.61452589754853",
                "lng": " -70.58113989266877"
            }
        ]
    },
    {
        "nombre_feria": "Feria Los Nogales ",
        "nombre_region": "Metropolitana",
        "nombre_comuna": "Puente Alto",
        "postura_feria": "Martes",
        "tipo_forma": "linea",
        "coordenadas": [
            {
                "lat": "-33.58357391020151",
                "lng": "\n\t\t\t\t\t\t-70.59746017011513"
            },
            {
                "lat": "-33.58408108601714",
                "lng": " -70.60106938105748"
            },
            {
                "lat": "-33.58446284185246",
                "lng": " -70.6037755217323"
            }
        ]
    },
    {
        "nombre_feria": "Feria Los Nogales ",
        "nombre_region": "Metropolitana",
        "nombre_comuna": "Puente Alto",
        "postura_feria": "Miércoles",
        "tipo_forma": "linea",
        "coordenadas": [
            {
                "lat": "-33.58000125518981",
                "lng": "\n\t\t\t\t\t\t-70.58735659913795"
            },
            {
                "lat": "-33.57783323104006",
                "lng": " -70.58777522054976"
            }
        ]
    },
    {
        "nombre_feria": "Feria Los Chacareros ",
        "nombre_region": "Metropolitana",
        "nombre_comuna": "Puente Alto",
        "postura_feria": "Martes",
        "tipo_forma": "linea",
        "coordenadas": [
            {
                "lat": "-33.58841492216365",
                "lng": "\n\t\t\t\t\t\t-70.56548323070902"
            },
            {
                "lat": "-33.58853683414252",
                "lng": " -70.56716181512728"
            },
            {
                "lat": "-33.58856047705442",
                "lng": " -70.56755567832367"
            },
            {
                "lat": "-33.58853732747392",
                "lng": " -70.56768783102588"
            }
        ]
    },
    {
        "nombre_feria": "Feria Los Chacareros ",
        "nombre_region": "Metropolitana",
        "nombre_comuna": "Puente Alto",
        "postura_feria": "Jueves",
        "tipo_forma": "linea",
        "coordenadas": [
            {
                "lat": "-33.57561250105314",
                "lng": "\n\t\t\t\t\t\t-70.55995957891051"
            },
            {
                "lat": "-33.57964569342819",
                "lng": " -70.55876644464914"
            }
        ]
    },
    {
        "nombre_feria": "Feria Los Chacareros ",
        "nombre_region": "Metropolitana",
        "nombre_comuna": "Puente Alto",
        "postura_feria": "Sábados",
        "tipo_forma": "linea",
        "coordenadas": [
            {
                "lat": "-33.56810982910517",
                "lng": "\n\t\t\t\t\t\t-70.57235009876445"
            },
            {
                "lat": "-33.56746019461096",
                "lng": " -70.5668770893177"
            }
        ]
    },
    {
        "nombre_feria": "Feria Los Chacareros ",
        "nombre_region": "Metropolitana",
        "nombre_comuna": "Puente Alto",
        "postura_feria": "Domingos",
        "tipo_forma": "linea",
        "coordenadas": [
            {
                "lat": "-33.56880428246475",
                "lng": "\n\t\t\t\t\t\t-70.57844221221757"
            },
            {
                "lat": "-33.56938971447736",
                "lng": " -70.58356636350098"
            }
        ]
    },
    {
        "nombre_feria": "Feria Luis Matte ",
        "nombre_region": "Metropolitana",
        "nombre_comuna": "Puente Alto",
        "postura_feria": "Miércoles",
        "tipo_forma": "linea",
        "coordenadas": [
            {
                "lat": "-33.58789344842952",
                "lng": "\n\t\t\t\t\t\t-70.59867603997006"
            },
            {
                "lat": "-33.5885089413467",
                "lng": " -70.6031731106623"
            }
        ]
    },
    {
        "nombre_feria": "Feria Luis Matte",
        "nombre_region": "Metropolitana",
        "nombre_comuna": "Puente Alto",
        "postura_feria": "Jueves",
        "tipo_forma": "linea",
        "coordenadas": [
            {
                "lat": "-33.58762167433811",
                "lng": "\n\t\t\t\t\t\t-70.59671696073769"
            },
            {
                "lat": "-33.58483531091514",
                "lng": " -70.59722866707612"
            }
        ]
    },
    {
        "nombre_feria": "Feria Luis Matte ",
        "nombre_region": "Metropolitana",
        "nombre_comuna": "Puente Alto",
        "postura_feria": "Viernes",
        "tipo_forma": "linea",
        "coordenadas": [
            {
                "lat": "-33.56979367097405",
                "lng": "\n\t\t\t\t\t\t-70.60825363470802"
            },
            {
                "lat": "-33.57054542413736",
                "lng": " -70.61126901933611"
            }
        ]
    },
    {
        "nombre_feria": "Feria Luis Matte ",
        "nombre_region": "Metropolitana",
        "nombre_comuna": "Puente Alto",
        "postura_feria": "Sábados",
        "tipo_forma": "linea",
        "coordenadas": [
            {
                "lat": "-33.5889000641382",
                "lng": "\n\t\t\t\t\t\t-70.60562802543468"
            },
            {
                "lat": "-33.58822752095786",
                "lng": " -70.60111676753188"
            }
        ]
    },
    {
        "nombre_feria": "Feria El Esfuerzo ",
        "nombre_region": "Metropolitana",
        "nombre_comuna": "Puente Alto",
        "postura_feria": "Miércoles",
        "tipo_forma": "linea",
        "coordenadas": [
            {
                "lat": "-33.58072384802209",
                "lng": "\n\t\t\t\t\t\t-70.59243172323777"
            },
            {
                "lat": "-33.58686674818678",
                "lng": " -70.59122746809831"
            }
        ]
    },
    {
        "nombre_feria": "Feria El Esfuerzo ",
        "nombre_region": "Metropolitana",
        "nombre_comuna": "Puente Alto",
        "postura_feria": "Jueves",
        "tipo_forma": "linea",
        "coordenadas": [
            {
                "lat": "-33.58489216864771",
                "lng": "\n\t\t\t\t\t\t-70.56471582204001"
            },
            {
                "lat": "-33.58300530574815",
                "lng": " -70.5667025126463"
            },
            {
                "lat": "-33.581701478152",
                "lng": " -70.56879871820979"
            }
        ]
    },
    {
        "nombre_feria": "Feria El Esfuerzo ",
        "nombre_region": "Metropolitana",
        "nombre_comuna": "Puente Alto",
        "postura_feria": "Viernes",
        "tipo_forma": "linea",
        "coordenadas": [
            {
                "lat": "-33.60094334111556",
                "lng": "\n\t\t\t\t\t\t-70.5604515202844"
            },
            {
                "lat": "-33.60130210455474",
                "lng": " -70.56529397669908"
            }
        ]
    },
    {
        "nombre_feria": "Feria El Esfuerzo ",
        "nombre_region": "Metropolitana",
        "nombre_comuna": "Puente Alto",
        "postura_feria": "Sábados",
        "tipo_forma": "linea",
        "coordenadas": [
            {
                "lat": "-33.58296055589185",
                "lng": "\n\t\t\t\t\t\t-70.59291499059965"
            },
            {
                "lat": "-33.58212048383554",
                "lng": " -70.5870780276847"
            }
        ]
    },
    {
        "nombre_feria": "Feria Licanray  ",
        "nombre_region": "Metropolitana",
        "nombre_comuna": "Puente Alto",
        "postura_feria": "Miércoles",
        "tipo_forma": "linea",
        "coordenadas": [
            {
                "lat": "-33.58018858793953",
                "lng": "\n\t\t\t\t\t\t-70.57122988658804"
            },
            {
                "lat": "-33.58042367715446",
                "lng": " -70.57075522699829"
            },
            {
                "lat": "-33.58147881325633",
                "lng": " -70.56883583489108"
            }
        ]
    },
    {
        "nombre_feria": "Feria Licanray ",
        "nombre_region": "Metropolitana",
        "nombre_comuna": "Puente Alto",
        "postura_feria": "Jueves",
        "tipo_forma": "linea",
        "coordenadas": [
            {
                "lat": "-33.56271813833608",
                "lng": "\n\t\t\t\t\t\t-70.56789737014462"
            },
            {
                "lat": "-33.56739194602675",
                "lng": " -70.56683559532223"
            }
        ]
    },
    {
        "nombre_feria": "Feria Licanray",
        "nombre_region": "Metropolitana",
        "nombre_comuna": "Puente Alto",
        "postura_feria": "Viernes",
        "tipo_forma": "linea",
        "coordenadas": [
            {
                "lat": "-33.58401083140949",
                "lng": "\n\t\t\t\t\t\t-70.5529801984209"
            },
            {
                "lat": "-33.58319066310743",
                "lng": " -70.55315072374964"
            },
            {
                "lat": "-33.58332756337853",
                "lng": " -70.55452421028285"
            }
        ]
    },
    {
        "nombre_feria": "Feria Licanray ",
        "nombre_region": "Metropolitana",
        "nombre_comuna": "Puente Alto",
        "postura_feria": "Domingos",
        "tipo_forma": "linea",
        "coordenadas": [
            {
                "lat": "-33.58453977775628",
                "lng": "\n\t\t\t\t\t\t-70.55755834344738"
            },
            {
                "lat": "-33.57984496407058",
                "lng": " -70.55868896961853"
            }
        ]
    },
    {
        "nombre_feria": "Feria Bajos de Mena",
        "nombre_region": "Metropolitana",
        "nombre_comuna": "Puente Alto",
        "postura_feria": "Martes y viernes",
        "tipo_forma": "linea",
        "coordenadas": [
            {
                "lat": "-33.63019237164801",
                "lng": "\n\t\t\t\t\t\t-70.6118511560762"
            },
            {
                "lat": "-33.62991618472934",
                "lng": " -70.61198862713316"
            },
            {
                "lat": "-33.62962322288986",
                "lng": " -70.61204021541536"
            },